{
  "zones": [
    {
      "id": 2,
      "name": "Andheri East",
      "latitude": 19.1136,
      "longitude": 72.8697,
      "baseline_aqi": 178,
      "proximity_to_sea": null,
      "green_space_percentage": null,
      "land_use_type": null,
      "major_roads": null,
      "parks_and_open_spaces": null,
      "industrial_areas": null,
      "pollution_sources": null,
      "population_density": null
    },
    {
      "id": 3,
      "name": "Andheri West",
      "latitude": 19.1197,
      "longitude": 72.8264,
      "baseline_aqi": 165,
      "proximity_to_sea": null,
      "green_space_percentage": null,
      "land_use_type": null,
      "major_roads": null,
      "parks_and_open_spaces": null,
      "industrial_areas": null,
      "pollution_sources": null,
      "population_density": null
    },
    {
      "id": 4,
      "name": "Bandra",
      "latitude": 19.0596,
      "longitude": 72.8295,
      "baseline_aqi": 152,
      "proximity_to_sea": null,
      "green_space_percentage": null,
      "land_use_type": null,
      "major_roads": null,
      "parks_and_open_spaces": null,
      "industrial_areas": null,
      "pollution_sources": null,
      "population_density": null
    },
    {
      "id": 20,
      "name": "Bhandup",
      "latitude": 19.1417,
      "longitude": 72.9306,
      "baseline_aqi": 190,
      "proximity_to_sea": null,
      "green_space_percentage": null,
      "land_use_type": null,
      "major_roads": null,
      "parks_and_open_spaces": null,
      "industrial_areas": null,
      "pollution_sources": null,
      "population_density": null
    },
    {
      "id": 5,
      "name": "Borivali",
      "latitude": 19.2307,
      "longitude": 72.8567,
      "baseline_aqi": 188,
      "proximity_to_sea": null,
      "green_space_percentage": null,
      "land_use_type": null,
      "major_roads": null,
      "parks_and_open_spaces": null,
      "industrial_areas": null,
      "pollution_sources": null,
      "population_density": null
    },
    {
      "id": 6,
      "name": "Chembur",
      "latitude": 19.0519,
      "longitude": 72.9,
      "baseline_aqi": 195,
      "proximity_to_sea": null,
      "green_space_percentage": null,
      "land_use_type": null,
      "major_roads": null,
      "parks_and_open_spaces": null,
      "industrial_areas": null,
      "pollution_sources": null,
      "population_density": null
    },
    {
      "id": 1,
      "name": "Colaba",
      "latitude": 18.922,
      "longitude": 72.8347,
      "baseline_aqi": 145,
      "proximity_to_sea": null,
      "green_space_percentage": null,
      "land_use_type": null,
      "major_roads": null,
      "parks_and_open_spaces": null,
      "industrial_areas": null,
      "pollution_sources": null,
      "population_density": null
    },
    {
      "id": 7,
      "name": "Dadar",
      "latitude": 19.0176,
      "longitude": 72.8422,
      "baseline_aqi": 168,
      "proximity_to_sea": null,
      "green_space_percentage": null,
      "land_use_type": null,
      "major_roads": null,
      "parks_and_open_spaces": null,
      "industrial_areas": null,
      "pollution_sources": null,
      "population_density": null
    },
    {
      "id": 8,
      "name": "Goregaon",
      "latitude": 19.155,
      "longitude": 72.8497,
      "baseline_aqi": 175,
      "proximity_to_sea": null,
      "green_space_percentage": null,
      "land_use_type": null,
      "major_roads": null,
      "parks_and_open_spaces": null,
      "industrial_areas": null,
      "pollution_sources": null,
      "population_density": null
    },
    {
      "id": 9,
      "name": "Juhu",
      "latitude": 19.1,
      "longitude": 72.8264,
      "baseline_aqi": 142,
      "proximity_to_sea": null,
      "green_space_percentage": null,
      "land_use_type": null,
      "major_roads": null,
      "parks_and_open_spaces": null,
      "industrial_areas": null,
      "pollution_sources": null,
      "population_density": null
    },
    {
      "id": 10,
      "name": "Kurla",
      "latitude": 19.0667,
      "longitude": 72.8833,
      "baseline_aqi": 198,
      "proximity_to_sea": null,
      "green_space_percentage": null,
      "land_use_type": null,
      "major_roads": null,
      "parks_and_open_spaces": null,
      "industrial_areas": null,
      "pollution_sources": null,
      "population_density": null
    },
    {
      "id": 11,
      "name": "Malad",
      "latitude": 19.1864,
      "longitude": 72.8481,
      "baseline_aqi": 182,
      "proximity_to_sea": null,
      "green_space_percentage": null,
      "land_use_type": null,
      "major_roads": null,
      "parks_and_open_spaces": null,
      "industrial_areas": null,
      "pollution_sources": null,
      "population_density": null
    },
    {
      "id": 12,
      "name": "Marine Lines",
      "latitude": 18.9444,
      "longitude": 72.8278,
      "baseline_aqi": 155,
      "proximity_to_sea": null,
      "green_space_percentage": null,
      "land_use_type": null,
      "major_roads": null,
      "parks_and_open_spaces": null,
      "industrial_areas": null,
      "pollution_sources": null,
      "population_density": null
    },
    {
      "id": 13,
      "name": "Mulund",
      "latitude": 19.1717,
      "longitude": 72.9561,
      "baseline_aqi": 172,
      "proximity_to_sea": null,
      "green_space_percentage": null,
      "land_use_type": null,
      "major_roads": null,
      "parks_and_open_spaces": null,
      "industrial_areas": null,
      "pollution_sources": null,
      "population_density": null
    },
    {
      "id": 14,
      "name": "Powai",
      "latitude": 19.1183,
      "longitude": 72.9067,
      "baseline_aqi": 148,
      "proximity_to_sea": null,
      "green_space_percentage": null,
      "land_use_type": null,
      "major_roads": null,
      "parks_and_open_spaces": null,
      "industrial_areas": null,
      "pollution_sources": null,
      "population_density": null
    },
    {
      "id": 15,
      "name": "Santacruz",
      "latitude": 19.082,
      "longitude": 72.8411,
      "baseline_aqi": 158,
      "proximity_to_sea": null,
      "green_space_percentage": null,
      "land_use_type": null,
      "major_roads": null,
      "parks_and_open_spaces": null,
      "industrial_areas": null,
      "pollution_sources": null,
      "population_density": null
    },
    {
      "id": 18,
      "name": "Worli",
      "latitude": 19.0089,
      "longitude": 72.8203,
      "baseline_aqi": 162,
      "proximity_to_sea": null,
      "green_space_percentage": null,
      "land_use_type": null,
      "major_roads": null,
      "parks_and_open_spaces": null,
      "industrial_areas": null,
      "pollution_sources": null,
      "population_density": null
    }
  ],
  "lastUpdated": "2026-01-19T19:25:07.130Z",
  "version": "1.0.0"
}